[
  {
    "id": 1,
    "nazev": "VDJ Amerika II",
    "okres": "PI",
    "kategorie": "I.",
    "oploceni": 293,
    "vymera": 3303,
    "lat": 49.305131,
    "lon": 14.166126,
    "priorita": 95,
    "posledniKontrola": "2025-11-15",
    "stav": "aktivni",
    "riziko": "vysoke",
    "naklady": 45000,
    "frekvenceUdrzby": 14
  },
  {
    "id": 2,
    "nazev": "VDJ Drahonice",
    "okres": "ST",
    "kategorie": "I.",
    "oploceni": 376,
    "vymera": 5953,
    "lat": 49.202902,
    "lon": 14.063713,
    "priorita": 92,
    "posledniKontrola": "2025-11-10",
    "stav": "aktivni",
    "riziko": "vysoke",
    "naklady": 58000,
    "frekvenceUdrzby": 14
  },
  {
    "id": 3,
    "nazev": "VDJ Vodňany",
    "okres": "ST",
    "kategorie": "I.",
    "oploceni": 252,
    "vymera": 1594,
    "lat": 49.16455,
    "lon": 14.177836,
    "priorita": 88,
    "posledniKontrola": "2025-11-12",
    "stav": "aktivni",
    "riziko": "vysoke",
    "naklady": 32000,
    "frekvenceUdrzby": 14
  },
  {
    "id": 4,
    "nazev": "VDJ Hlavatce",
    "okres": "CB",
    "kategorie": "",
    "oploceni": 424,
    "vymera": 7968,
    "lat": 49.063584,
    "lon": 14.267751,
    "priorita": 65,
    "posledniKontrola": "2025-11-08",
    "stav": "aktivni",
    "riziko": "nizke",
    "naklady": 42000,
    "frekvenceUdrzby": 30
  },
  {
    "id": 5,
    "nazev": "VDJ Šibeniční vrch I",
    "okres": "PT",
    "kategorie": "I.",
    "oploceni": 245,
    "vymera": 1835,
    "lat": 49.025083,
    "lon": 13.994111,
    "priorita": 90,
    "posledniKontrola": "2025-11-14",
    "stav": "aktivni",
    "riziko": "vysoke",
    "naklady": 35000,
    "frekvenceUdrzby": 14
  },
  {
    "id": 6,
    "nazev": "ÚV Husinecka přehrada",
    "okres": "PT",
    "kategorie": "",
    "oploceni": 703,
    "vymera": 4908,
    "lat": 49.034362,
    "lon": 13.99683,
    "priorita": 70,
    "posledniKontrola": "2025-11-05",
    "stav": "aktivni",
    "riziko": "nizke",
    "naklady": 55000,
    "frekvenceUdrzby": 30
  },
  {
    "id": 7,
    "nazev": "VDJ Šibeniční vrch II",
    "okres": "PT",
    "kategorie": "I.",
    "oploceni": 340,
    "vymera": 3206,
    "lat": 49.02671,
    "lon": 13.994001,
    "priorita": 91,
    "posledniKontrola": "2025-11-14",
    "stav": "aktivni",
    "riziko": "vysoke",
    "naklady": 42000,
    "frekvenceUdrzby": 14
  },
  {
    "id": 8,
    "nazev": "VDJ Zálužany",
    "okres": "PI",
    "kategorie": "",
    "oploceni": 299,
    "vymera": 2350,
    "lat": 49.552857,
    "lon": 14.083381,
    "priorita": 68,
    "posledniKontrola": "2025-11-07",
    "stav": "aktivni",
    "riziko": "nizke",
    "naklady": 38000,
    "frekvenceUdrzby": 30
  },
  {
    "id": 9,
    "nazev": "VDJ Ptáčník",
    "okres": "PT",
    "kategorie": "II.",
    "oploceni": 239,
    "vymera": 1070,
    "lat": 49.066147,
    "lon": 14.186844,
    "priorita": 75,
    "posledniKontrola": "2025-11-11",
    "stav": "aktivni",
    "riziko": "stredni",
    "naklady": 28000,
    "frekvenceUdrzby": 21
  },
  {
    "id": 10,
    "nazev": "VDJ Zdoba",
    "okres": "CB",
    "kategorie": "II.",
    "oploceni": 225,
    "vymera": 15523,
    "lat": 49.212422,
    "lon": 14.338095,
    "priorita": 78,
    "posledniKontrola": "2025-11-09",
    "stav": "aktivni",
    "riziko": "stredni",
    "naklady": 72000,
    "frekvenceUdrzby": 21
  },
  {
    "id": 11,
    "nazev": "VDJ Domoradice",
    "okres": "CK",
    "kategorie": "I.",
    "oploceni": 450,
    "vymera": 4148,
    "lat": 48.829651,
    "lon": 14.326564,
    "priorita": 93,
    "posledniKontrola": "2025-11-13",
    "stav": "aktivni",
    "riziko": "vysoke",
    "naklady": 52000,
    "frekvenceUdrzby": 14
  },
  {
    "id": 12,
    "nazev": "VDJ Horní Brána",
    "okres": "CK",
    "kategorie": "I.",
    "oploceni": 187,
    "vymera": 1665,
    "lat": 48.80797,
    "lon": 14.329352,
    "priorita": 89,
    "posledniKontrola": "2025-11-12",
    "stav": "aktivni",
    "riziko": "vysoke",
    "naklady": 34000,
    "frekvenceUdrzby": 14
  },
  {
    "id": 13,
    "nazev": "VDJ Netřebice",
    "okres": "CK",
    "kategorie": "I.",
    "oploceni": 136,
    "vymera": 877,
    "lat": 48.783277,
    "lon": 14.456447,
    "priorita": 87,
    "posledniKontrola": "2025-11-11",
    "stav": "aktivni",
    "riziko": "vysoke",
    "naklady": 26000,
    "frekvenceUdrzby": 14
  },
  {
    "id": 14,
    "nazev": "VDJ Plešivec",
    "okres": "CK",
    "kategorie": "I.",
    "oploceni": 119,
    "vymera": 975,
    "lat": 48.802231,
    "lon": 14.304933,
    "priorita": 86,
    "posledniKontrola": "2025-11-10",
    "stav": "aktivni",
    "riziko": "vysoke",
    "naklady": 27000,
    "frekvenceUdrzby": 14
  },
  {
    "id": 15,
    "nazev": "VDJ Doudleby",
    "okres": "CB",
    "kategorie": "II.",
    "oploceni": 79,
    "vymera": 413,
    "lat": 48.888896,
    "lon": 14.480271,
    "priorita": 72,
    "posledniKontrola": "2025-11-08",
    "stav": "aktivni",
    "riziko": "stredni",
    "naklady": 18000,
    "frekvenceUdrzby": 21
  },
  {
    "id": 16,
    "nazev": "VDJ Jankov",
    "okres": "CB",
    "kategorie": "I.",
    "oploceni": 106,
    "vymera": 784,
    "lat": 48.968747,
    "lon": 14.301697,
    "priorita": 85,
    "posledniKontrola": "2025-11-09",
    "stav": "aktivni",
    "riziko": "vysoke",
    "naklady": 24000,
    "frekvenceUdrzby": 14
  },
  {
    "id": 17,
    "nazev": "VDJ Hosín II",
    "okres": "CB",
    "kategorie": "I.",
    "oploceni": 399,
    "vymera": 4173,
    "lat": 49.030641,
    "lon": 14.501012,
    "priorita": 92,
    "posledniKontrola": "2025-11-13",
    "stav": "aktivni",
    "riziko": "vysoke",
    "naklady": 51000,
    "frekvenceUdrzby": 14
  },
  {
    "id": 18,
    "nazev": "VDJ Chlum",
    "okres": "CB",
    "kategorie": "II.",
    "oploceni": 63,
    "vymera": 535,
    "lat": 49.096493,
    "lon": 14.388679,
    "priorita": 70,
    "posledniKontrola": "2025-11-07",
    "stav": "aktivni",
    "riziko": "stredni",
    "naklady": 19000,
    "frekvenceUdrzby": 21
  },
  {
    "id": 19,
    "nazev": "VDJ Chotýčany",
    "okres": "CB",
    "kategorie": "II.",
    "oploceni": 338,
    "vymera": 4775,
    "lat": 49.070748,
    "lon": 14.51946,
    "priorita": 76,
    "posledniKontrola": "2025-11-10",
    "stav": "aktivni",
    "riziko": "stredni",
    "naklady": 48000,
    "frekvenceUdrzby": 21
  },
  {
    "id": 20,
    "nazev": "VDJ Rudolfov III",
    "okres": "CB",
    "kategorie": "I.",
    "oploceni": 174,
    "vymera": 1868,
    "lat": 48.986207,
    "lon": 14.547076,
    "priorita": 88,
    "posledniKontrola": "2025-11-12",
    "stav": "aktivni",
    "riziko": "vysoke",
    "naklady": 36000,
    "frekvenceUdrzby": 14
  },
  {
    "id": 21,
    "nazev": "VDJ Rimov - Vesce",
    "okres": "CB",
    "kategorie": "I.",
    "oploceni": 99,
    "vymera": 662,
    "lat": 48.847847,
    "lon": 14.466957,
    "priorita": 84,
    "posledniKontrola": "2025-11-08",
    "stav": "aktivni",
    "riziko": "vysoke",
    "naklady": 22000,
    "frekvenceUdrzby": 14
  },
  {
    "id": 22,
    "nazev": "VDJ Hosin",
    "okres": "CB",
    "kategorie": "II.",
    "oploceni": 125,
    "vymera": 809,
    "lat": 49.033641,
    "lon": 14.492878,
    "priorita": 73,
    "posledniKontrola": "2025-11-09",
    "stav": "aktivni",
    "riziko": "stredni",
    "naklady": 25000,
    "frekvenceUdrzby": 21
  },
  {
    "id": 23,
    "nazev": "VDJ Včelná",
    "okres": "CB",
    "kategorie": "II.",
    "oploceni": 476,
    "vymera": 8660,
    "lat": 48.924663,
    "lon": 14.463506,
    "priorita": 77,
    "posledniKontrola": "2025-11-11",
    "stav": "aktivni",
    "riziko": "stredni",
    "naklady": 62000,
    "frekvenceUdrzby": 21
  },
  {
    "id": 24,
    "nazev": "VDJ Húry",
    "okres": "CB",
    "kategorie": "I.",
    "oploceni": 0,
    "vymera": 395,
    "lat": 49.006417,
    "lon": 14.549815,
    "priorita": 82,
    "posledniKontrola": "2025-11-06",
    "stav": "aktivni",
    "riziko": "vysoke",
    "naklady": 18000,
    "frekvenceUdrzby": 14
  },
  {
    "id": 25,
    "nazev": "VDJ Chlumec",
    "okres": "CB",
    "kategorie": "II.",
    "oploceni": 110,
    "vymera": 811,
    "lat": 49.124766,
    "lon": 14.431321,
    "priorita": 71,
    "posledniKontrola": "2025-11-07",
    "stav": "aktivni",
    "riziko": "stredni",
    "naklady": 24000,
    "frekvenceUdrzby": 21
  },
  {
    "id": 26,
    "nazev": "VDJ Olešník",
    "okres": "CB",
    "kategorie": "I.",
    "oploceni": 117,
    "vymera": 380,
    "lat": 49.111103,
    "lon": 14.377766,
    "priorita": 83,
    "posledniKontrola": "2025-11-08",
    "stav": "aktivni",
    "riziko": "vysoke",
    "naklady": 17000,
    "frekvenceUdrzby": 14
  },
  {
    "id": 27,
    "nazev": "ČS Bukovec",
    "okres": "CB",
    "kategorie": "I.",
    "oploceni": 300,
    "vymera": 4943,
    "lat": 48.881608,
    "lon": 14.449233,
    "priorita": 91,
    "posledniKontrola": "2025-11-13",
    "stav": "aktivni",
    "riziko": "vysoke",
    "naklady": 54000,
    "frekvenceUdrzby": 14
  },
  {
    "id": 28,
    "nazev": "VDJ Heřman",
    "okres": "CB",
    "kategorie": "II.",
    "oploceni": 119,
    "vymera": 982,
    "lat": 48.909479,
    "lon": 14.499876,
    "priorita": 74,
    "posledniKontrola": "2025-11-10",
    "stav": "aktivni",
    "riziko": "stredni",
    "naklady": 26000,
    "frekvenceUdrzby": 21
  },
  {
    "id": 29,
    "nazev": "ČS Vidov u řeky",
    "okres": "CB",
    "kategorie": "II.",
    "oploceni": 212,
    "vymera": 2501,
    "lat": 48.924157,
    "lon": 14.489619,
    "priorita": 75,
    "posledniKontrola": "2025-11-11",
    "stav": "aktivni",
    "riziko": "stredni",
    "naklady": 38000,
    "frekvenceUdrzby": 21
  },
  {
    "id": 30,
    "nazev": "Vrt Vidov",
    "okres": "CB",
    "kategorie": "II.",
    "oploceni": 164,
    "vymera": 470,
    "lat": 48.924066,
    "lon": 14.489679,
    "priorita": 69,
    "posledniKontrola": "2025-11-06",
    "stav": "aktivni",
    "riziko": "stredni",
    "naklady": 19000,
    "frekvenceUdrzby": 21
  },
  {
    "id": 31,
    "nazev": "ÚV Plav",
    "okres": "CB",
    "kategorie": "I.",
    "oploceni": 1413,
    "vymera": 74777,
    "lat": 48.912611,
    "lon": 14.494018,
    "priorita": 98,
    "posledniKontrola": "2025-11-15",
    "stav": "aktivni",
    "riziko": "vysoke",
    "naklady": 185000,
    "frekvenceUdrzby": 7
  },
  {
    "id": 32,
    "nazev": "VDJ Čekanice",
    "okres": "TA",
    "kategorie": "I.",
    "oploceni": 450,
    "vymera": 6344,
    "lat": 49.422197,
    "lon": 14.689896,
    "priorita": 94,
    "posledniKontrola": "2025-11-14",
    "stav": "aktivni",
    "riziko": "vysoke",
    "naklady": 61000,
    "frekvenceUdrzby": 14
  },
  {
    "id": 33,
    "nazev": "VDJ Svatá Anna",
    "okres": "TA",
    "kategorie": "I.",
    "oploceni": 264,
    "vymera": 4192,
    "lat": 49.401133,
    "lon": 14.69864,
    "priorita": 90,
    "posledniKontrola": "2025-11-13",
    "stav": "aktivni",
    "riziko": "vysoke",
    "naklady": 49000,
    "frekvenceUdrzby": 14
  },
  {
    "id": 34,
    "nazev": "VDJ Bezděčín",
    "okres": "TA",
    "kategorie": "I.",
    "oploceni": 169,
    "vymera": 1996,
    "lat": 49.323096,
    "lon": 14.628405,
    "priorita": 87,
    "posledniKontrola": "2025-11-11",
    "stav": "aktivni",
    "riziko": "vysoke",
    "naklady": 37000,
    "frekvenceUdrzby": 14
  },
  {
    "id": 35,
    "nazev": "VDJ Milevsko",
    "okres": "TA",
    "kategorie": "I.",
    "oploceni": 129,
    "vymera": 823,
    "lat": 49.452521,
    "lon": 14.344102,
    "priorita": 85,
    "posledniKontrola": "2025-11-09",
    "stav": "aktivni",
    "riziko": "vysoke",
    "naklady": 25000,
    "frekvenceUdrzby": 14
  },
  {
    "id": 36,
    "nazev": "VDJ Hodušín",
    "okres": "TA",
    "kategorie": "II.",
    "oploceni": 205,
    "vymera": 1708,
    "lat": 49.42967,
    "lon": 14.474214,
    "priorita": 74,
    "posledniKontrola": "2025-11-10",
    "stav": "aktivni",
    "riziko": "stredni",
    "naklady": 33000,
    "frekvenceUdrzby": 21
  },
  {
    "id": 37,
    "nazev": "VDJ Všechov",
    "okres": "TA",
    "kategorie": "I.",
    "oploceni": 199,
    "vymera": 1574,
    "lat": 49.430159,
    "lon": 14.623205,
    "priorita": 86,
    "posledniKontrola": "2025-11-11",
    "stav": "aktivni",
    "riziko": "vysoke",
    "naklady": 32000,
    "frekvenceUdrzby": 14
  },
  {
    "id": 38,
    "nazev": "VDJ Zlukov",
    "okres": "TA",
    "kategorie": "II.",
    "oploceni": 184,
    "vymera": 1520,
    "lat": 49.196289,
    "lon": 14.736382,
    "priorita": 72,
    "posledniKontrola": "2025-11-08",
    "stav": "aktivni",
    "riziko": "stredni",
    "naklady": 31000,
    "frekvenceUdrzby": 21
  },
  {
    "id": 39,
    "nazev": "ÚV Tábor",
    "okres": "TA",
    "kategorie": "II.",
    "oploceni": 350,
    "vymera": 12262,
    "lat": 49.422872,
    "lon": 14.666426,
    "priorita": 79,
    "posledniKontrola": "2025-11-12",
    "stav": "aktivni",
    "riziko": "stredni",
    "naklady": 68000,
    "frekvenceUdrzby": 21
  },
  {
    "id": 40,
    "nazev": "ČS Sudoměřice",
    "okres": "TA",
    "kategorie": "I.",
    "oploceni": 220,
    "vymera": 2508,
    "lat": 49.28658,
    "lon": 14.547794,
    "priorita": 88,
    "posledniKontrola": "2025-11-12",
    "stav": "aktivni",
    "riziko": "vysoke",
    "naklady": 39000,
    "frekvenceUdrzby": 14
  },
  {
    "id": 41,
    "nazev": "Provozní Vodojem Tábor",
    "okres": "TA",
    "kategorie": "II.",
    "oploceni": 155,
    "vymera": 1853,
    "lat": 49.424264,
    "lon": 14.666384,
    "priorita": 73,
    "posledniKontrola": "2025-11-09",
    "stav": "aktivni",
    "riziko": "stredni",
    "naklady": 34000,
    "frekvenceUdrzby": 21
  }
]